City_ID,City,Lat,Lng,Max Temp,Humidity,Cloudiness,Wind Speed,Country,Date
0,rio grande,-32.035,-52.0986,16.55,65,10,4.66,BR,1681441105
1,qaanaaq,77.484,-69.3632,-15.38,75,3,2.68,GL,1681441106
2,sarai naurang,32.8259,70.7814,29.72,23,0,0.72,PK,1681441106
3,tuatapere,-46.1333,167.6833,17.97,60,0,1.74,NZ,1681441106
4,albany,42.6001,-73.9662,20.23,56,7,2.04,US,1681440917
5,cherskiy,68.75,161.3,-11.03,77,7,3.29,RU,1681441107
6,kahului,20.8947,-156.47,29.01,59,20,9.26,US,1681440976
7,jamestown,42.097,-79.2353,18.8,58,0,3.09,US,1681441043
8,rikitea,-23.1203,-134.9692,23.3,86,100,11.08,PF,1681440906
9,ushuaia,-54.8,-68.3,3.81,81,0,0.51,AR,1681441108
10,vaini,-21.2,-175.2,30.09,70,20,6.69,TO,1681441109
11,kapaa,22.0752,-159.319,26.99,80,75,7.72,US,1681441093
12,najran,17.4924,44.1277,20.36,57,4,1.58,SA,1681441109
13,nsanje,-16.92,35.262,19.78,97,67,0.69,MW,1681441109
14,portoferraio,42.8115,10.3146,12.76,62,69,6.5,IT,1681441110
15,skibbereen,51.55,-9.2667,6.73,94,100,2.91,IE,1681441110
16,kodiak,57.79,-152.4072,1.73,87,100,3.09,US,1681441110
17,upernavik,72.7868,-56.1549,-11.31,93,100,2.39,GL,1681441110
18,vallenar,-28.5708,-70.7581,17.22,65,0,0.53,CL,1681441111
19,adrar,20.5022,-10.0711,25.93,37,76,2.62,MR,1681441111
20,mahenge,-8.6833,36.7167,17.36,96,100,0.71,TZ,1681441111
21,new norfolk,-42.7826,147.0587,16.07,44,0,2.22,AU,1681440841
22,kruisfontein,-34.0033,24.7314,14.07,84,36,10.49,ZA,1681441112
23,port alfred,-33.5906,26.891,17.02,69,1,11.11,ZA,1681441112
24,leningradskiy,69.3833,178.4167,-14.8,84,61,3.46,RU,1681441113
25,kaduy,59.2,37.15,-3.33,64,11,4.52,RU,1681441113
26,sibuco,7.2911,122.0656,30.97,60,65,1.71,PH,1681441113
27,mazatlan,23.2167,-106.4167,23.28,80,100,0.89,MX,1681441113
28,colares,38.7992,-9.4469,13.52,70,100,8.94,PT,1681441061
29,tiksi,71.6872,128.8694,-6.29,81,100,1.67,RU,1681441114
30,kununurra,-15.7667,128.7333,29.99,70,40,1.54,AU,1681441053
31,yazman,29.1212,71.7446,33.19,15,0,3.5,PK,1681441115
32,punta arenas,-53.15,-70.9167,3.06,81,0,4.63,CL,1681441115
33,busselton,-33.65,115.3333,17.13,38,62,9.45,AU,1681441115
34,puerto madryn,-42.7692,-65.0385,9.39,60,0,5.13,AR,1681441115
35,erzin,36.9559,36.2,11.04,82,12,1.53,TR,1681441115
36,bardiyah,31.7561,25.0865,16.21,64,4,4.44,LY,1681441116
37,tasiilaq,65.6145,-37.6368,-6.31,89,66,2.28,GL,1681441116
38,bluff,-46.6,168.3333,16.09,70,0,5.66,NZ,1681441116
39,narsaq,60.9167,-46.05,-0.89,70,100,3.35,GL,1681441116
40,san carlos,9.6612,-68.5827,26.01,67,32,1.97,VE,1681441116
41,east london,-33.0153,27.9116,17.64,64,56,7.07,ZA,1681441116
42,ballina,-28.8667,153.5667,23.77,63,50,7.59,AU,1681441116
43,north myrtle beach,33.816,-78.68,20.05,85,100,2.57,US,1681441116
44,yamada,39.4667,141.95,16.44,52,93,6.71,JP,1681441116
45,conde,-7.2597,-34.9075,23.7,94,20,2.57,BR,1681441117
46,sao filipe,14.8961,-24.4956,23.0,80,55,0.16,CV,1681441117
47,necochea,-38.5473,-58.7368,12.1,57,98,2.75,AR,1681440882
48,beroroha,-21.6667,45.1667,21.47,78,0,0.69,MG,1681441118
49,road town,18.4167,-64.6167,26.05,78,20,3.6,VG,1681441118
50,jalu,29.0331,21.5482,18.3,19,44,4.3,LY,1681441118
51,olafsvik,64.8945,-23.7142,4.26,71,96,2.88,IS,1681441118
52,faya,18.3851,42.4509,15.06,72,1,1.85,SA,1681441118
53,port hardy,50.6996,-127.4199,8.0,93,75,3.6,CA,1681440881
54,alanya,36.5438,31.9998,14.54,65,0,2.06,TR,1681441119
55,bengkulu,-3.8004,102.2655,28.64,68,40,1.81,ID,1681440882
56,alyangula,-13.8483,136.4192,29.44,70,65,3.24,AU,1681441119
57,lompoc,34.6391,-120.4579,12.0,78,0,9.77,US,1681440968
58,kamenka,51.3223,42.7678,6.64,89,100,11.67,RU,1681440825
59,egvekinot,66.3167,-179.1667,-16.11,75,3,3.35,RU,1681441049
60,klaksvik,62.2266,-6.589,6.51,90,100,5.45,FO,1681441119
61,half moon bay,37.4636,-122.4286,13.19,68,0,12.35,US,1681441024
62,la orilla,17.9833,-102.2333,24.21,70,0,2.7,MX,1681441120
63,lanxi,29.2195,119.477,19.97,90,100,0.98,CN,1681441120
64,mahebourg,-20.4081,57.7,24.58,94,20,1.54,MU,1681440941
65,bethel,41.3712,-73.414,24.33,41,0,0.89,US,1681441118
66,maturin,9.75,-63.1767,25.91,69,81,4.63,VE,1681441120
67,port pirie,-33.1833,138.0167,25.15,28,89,7.83,AU,1681441121
68,coahuayana,18.7333,-103.6833,21.79,70,3,0.68,MX,1681441121
69,vao,-22.6667,167.4833,23.84,90,100,6.53,NC,1681441121
70,batagay,67.6333,134.6333,-4.16,84,98,0.37,RU,1681441121
71,lakes entrance,-37.8811,147.981,19.53,60,10,4.7,AU,1681441121
72,deputatskiy,69.3,139.9,-10.09,84,100,1.32,RU,1681441121
73,porto nacional,-10.7081,-48.4172,26.0,79,84,0.7,BR,1681441121
74,nikolskoye,59.7035,30.7861,0.94,81,97,4.14,RU,1681441052
75,chokurdakh,70.6333,147.9167,-10.15,85,98,3.42,RU,1681441121
76,mar del plata,-38.0023,-57.5575,12.19,66,75,1.54,AR,1681440618
77,guozhen,34.3659,107.359,15.68,55,86,2.53,CN,1681441122
78,butaritari,3.0707,172.7902,27.42,78,63,4.48,KI,1681441122
79,bambous virieux,-20.3428,57.7575,24.56,94,20,1.54,MU,1681441123
80,cayenne,4.9333,-52.3333,24.02,100,100,1.03,GF,1681441123
81,thompson,55.7435,-97.8558,4.09,60,75,2.06,CA,1681440824
82,hermanus,-34.4187,19.2345,10.45,70,44,4.53,ZA,1681441123
83,jatiroto,-7.8833,111.1167,26.41,81,100,2.81,ID,1681441123
84,nanortalik,60.1432,-45.2371,0.98,78,100,2.45,GL,1681441123
85,coquimbo,-29.9533,-71.3436,14.85,94,20,1.03,CL,1681440596
86,souillac,-20.5167,57.5167,23.21,94,20,1.54,MU,1681441124
87,bredasdorp,-34.5322,20.0403,13.38,67,47,3.32,ZA,1681441124
88,saint george,37.1041,-113.5841,21.33,19,0,4.12,US,1681441124
89,puerto ayora,-0.7393,-90.3518,28.08,92,99,2.68,EC,1681440903
90,roald,62.5833,6.1333,10.51,53,65,5.14,NO,1681441125
91,fortuna,40.5982,-124.1573,9.25,74,29,2.15,US,1681440753
92,homer,59.6425,-151.5483,3.78,74,100,4.12,US,1681441125
93,dikson,73.5069,80.5464,-23.08,100,100,3.61,RU,1681441125
94,banjar,-8.19,114.9675,30.19,65,100,1.51,ID,1681441126
95,stephenville crossing,48.5,-58.4318,2.07,87,75,3.6,CA,1681441126
96,ancud,-41.8697,-73.8203,9.54,80,100,1.7,CL,1681441126
97,provideniya,64.3833,-173.3,-10.91,52,0,2.0,RU,1681441126
98,atuona,-9.8,-139.0333,26.74,69,88,1.65,PF,1681441124
99,chuy,-33.6971,-53.4616,12.41,71,4,3.11,UY,1681441126
100,avarua,-21.2078,-159.775,27.03,65,68,3.09,CK,1681441119
101,sitka,57.0531,-135.33,5.94,70,75,0.0,US,1681441126
102,mataura,-46.1927,168.8643,17.67,59,0,3.54,NZ,1681441126
103,balkanabat,39.5108,54.3671,16.08,54,100,0.64,TM,1681441127
104,ribeira grande,38.5167,-28.7,17.1,93,96,7.6,PT,1681441127
105,gushikawa,26.3544,127.8686,25.57,90,100,5.14,JP,1681441127
106,churapcha,62.0025,132.4325,-0.66,92,100,2.92,RU,1681441127
107,carnarvon,-24.8667,113.6333,21.1,53,87,12.53,AU,1681441127
108,cape town,-33.9258,18.4232,17.43,67,20,5.66,ZA,1681440480
109,darhan,49.4867,105.9228,1.64,40,9,4.18,MN,1681441127
110,meppen,52.6906,7.291,4.94,100,19,0.0,DE,1681441128
111,kitimat,54.0524,-128.6534,6.21,52,96,1.52,CA,1681441128
112,lodwar,3.1191,35.5973,27.11,61,100,4.64,KE,1681441128
113,formosa,-26.1775,-58.1781,19.99,91,100,5.66,AR,1681441128
114,barrow,71.2906,-156.7887,-16.99,71,0,4.63,US,1681441109
115,ilhabela,-23.7781,-45.3581,22.85,85,3,1.46,BR,1681441129
116,sabak,3.7675,100.9875,30.53,66,12,1.88,MY,1681441129
117,hasaki,35.7333,140.8333,24.01,68,87,10.31,JP,1681441129
118,goksun,38.021,36.4973,2.84,85,1,1.81,TR,1681440919
119,jaszszentlaszlo,46.5668,19.7607,11.08,61,100,5.68,HU,1681441129
120,ostrovnoy,68.0531,39.5131,-8.17,80,14,9.61,RU,1681441129
121,kupang,-10.1667,123.5833,31.32,79,40,3.6,ID,1681440961
122,port blair,11.6667,92.75,30.45,57,10,1.8,IN,1681440944
123,portland,45.5234,-122.6762,11.02,65,99,2.34,US,1681440955
124,sangar,63.9242,127.4739,-1.35,90,90,3.43,RU,1681441130
125,poum,-20.2333,164.0167,24.95,86,100,4.53,NC,1681440885
126,borba,-4.3878,-59.5939,23.65,96,51,0.49,BR,1681441130
127,aktash,50.3,87.7333,-4.55,65,54,2.05,RU,1681441131
128,touros,-5.1989,-35.4608,24.65,90,83,3.8,BR,1681441102
129,mahibadhoo,3.7833,72.9667,28.54,74,7,2.46,MV,1681440982
130,lavrentiya,65.5833,-171.0,-14.19,77,10,4.1,RU,1681441131
131,horta,38.5333,-28.6333,16.68,93,92,7.6,PT,1681441131
132,ilulissat,69.2167,-51.1,-9.06,88,100,2.56,GL,1681441024
133,meulaboh,4.1363,96.1285,28.33,76,90,0.7,ID,1681441115
134,savannah bight,16.45,-85.85,27.14,83,99,8.26,HN,1681441131
135,manado,1.487,124.8455,32.43,66,40,1.54,ID,1681441132
136,armidale,-30.5167,151.65,17.45,48,85,2.51,AU,1681441132
137,airai,-8.9266,125.4092,22.25,73,20,1.08,TL,1681441132
138,rochegda,62.8,43.25,-12.06,90,6,1.66,RU,1681441132
139,norman wells,65.282,-126.8329,-8.98,79,100,4.12,CA,1681441132
140,hirara,24.8,125.2833,26.15,83,75,7.2,JP,1681441109
141,tsaratanana,-16.7833,47.65,21.33,92,100,2.24,MG,1681441132
142,powell,40.1578,-83.0752,17.67,51,0,0.0,US,1681441132
143,zherdevka,51.8486,41.4606,5.75,86,100,11.01,RU,1681441132
144,fort nelson,58.8053,-122.7002,6.77,42,75,1.54,CA,1681441042
145,barreiras,-12.1528,-44.99,24.06,62,100,1.1,BR,1681441133
146,hithadhoo,-0.6,73.0833,28.71,69,59,3.12,MV,1681440905
147,redcliffe,-27.2307,153.0973,27.86,43,0,4.63,AU,1681441133
148,san quintin,30.4833,-115.95,12.99,65,38,5.88,MX,1681441098
149,pierre,44.3683,-100.351,11.51,66,0,5.66,US,1681441133
150,zhigansk,66.7697,123.3711,-5.22,83,53,4.9,RU,1681441133
151,ponta do sol,32.6667,-17.1,17.78,72,79,3.82,PT,1681441133
152,lincoln,40.8,-96.667,22.87,37,3,3.58,US,1681440827
153,castro,-24.7911,-50.0119,16.18,85,98,1.66,BR,1681441134
154,los llanos de aridane,28.6585,-17.9182,18.4,54,100,6.71,ES,1681441134
155,bonavista,48.6499,-53.1147,0.31,90,100,1.96,CA,1681441134
156,lewisporte,49.2499,-55.0482,-0.16,95,100,1.84,CA,1681441134
157,codrington,-38.2667,141.9667,22.87,47,23,5.3,AU,1681440918
158,hobart,-42.8794,147.3294,16.81,70,75,2.06,AU,1681441135
159,ipixuna,-1.7625,-48.8043,23.42,97,100,1.17,BR,1681441135
160,coihaique,-45.5752,-72.0662,1.97,75,0,2.06,CL,1681441135
161,constitucion,-35.3333,-72.4167,12.47,93,100,2.74,CL,1681441135
162,prince albert,53.2001,-105.7677,4.97,56,75,2.57,CA,1681440964
163,guerrero negro,27.9769,-114.0611,14.14,72,0,6.8,MX,1681441135
164,hilo,19.7297,-155.09,24.85,74,75,2.06,US,1681441060
165,khatanga,71.9667,102.5,-20.04,82,52,7.84,RU,1681441106
166,tuktoyaktuk,69.4541,-133.0374,-19.0,71,20,2.57,CA,1681441135
167,havoysund,70.9963,24.6622,1.13,73,4,3.3,NO,1681441136
168,nago,26.5881,127.9761,24.24,80,100,4.19,JP,1681441127
169,yellowknife,62.456,-114.3525,-3.71,74,100,3.6,CA,1681440921
170,saint aubin,-20.4917,57.5414,22.45,94,20,1.54,MU,1681441136
171,palembang,-2.9167,104.7458,31.05,70,40,2.57,ID,1681441136
172,westport,41.1415,-73.3579,25.61,51,0,4.02,US,1681440863
173,skeldon,5.8833,-57.1333,24.73,90,86,2.36,GY,1681441136
174,torbay,47.6666,-52.7314,1.26,93,40,1.03,CA,1681441046
175,menongue,-14.6585,17.691,18.2,80,99,1.32,AO,1681441137
176,pevek,69.7008,170.3133,-15.62,86,99,1.5,RU,1681441137
177,paita,-5.0892,-81.1144,27.35,74,100,4.3,PE,1681441137
178,udachnyy,66.4167,112.4,-3.64,49,100,10.93,RU,1681441137
179,nara,34.6851,135.8049,21.62,31,95,1.8,JP,1681441137
180,sambava,-14.2667,50.1667,23.12,91,11,1.77,MG,1681441137
181,great bend,38.3645,-98.7648,22.24,38,0,8.75,US,1681441137
182,arraial do cabo,-22.9661,-42.0278,23.85,91,9,3.92,BR,1681440838
183,nouadhibou,20.931,-17.0347,20.99,78,0,4.63,MR,1681441137
184,sorland,67.667,12.6934,4.92,72,11,10.52,NO,1681441138
185,altamira,-3.2033,-52.2064,22.77,98,90,0.76,BR,1681440759
186,solnechnyy,50.7214,136.6319,-2.31,73,100,4.57,RU,1681440939
187,along,28.1667,94.7667,28.71,44,0,0.42,IN,1681441138
188,saint-philippe,-21.3585,55.7679,24.77,84,95,0.51,RE,1681441138
189,rundu,-17.9333,19.7667,18.93,70,29,2.18,NA,1681441120
190,caravelas,-17.7125,-39.2481,23.79,91,11,2.18,BR,1681440887
191,black river,18.0264,-77.8487,25.41,82,71,0.56,JM,1681441139
192,guican,6.4618,-72.4113,11.12,91,100,1.15,CO,1681441139
193,san jose,37.3394,-121.895,14.08,57,0,8.23,US,1681440490
194,krasnoarmeysk,51.0239,45.6969,7.74,92,100,12.69,RU,1681441139
195,nome,64.5011,-165.4064,-12.69,72,0,2.57,US,1681440907
196,grindavik,63.8424,-22.4338,3.26,93,75,4.63,IS,1681441005
197,beringovskiy,63.05,179.3167,-12.51,76,98,4.58,RU,1681440960
198,laguna,38.421,-121.4238,18.08,24,0,3.09,US,1681441140
199,zimovniki,47.1483,42.4633,9.38,89,100,12.19,RU,1681441140
200,taksimo,56.3444,114.8794,-1.11,60,87,0.69,RU,1681440876
201,briancon,44.9,6.65,-5.11,95,61,2.83,FR,1681441140
202,de-kastri,51.4667,140.7833,-1.4,82,100,6.82,RU,1681441141
203,nuqui,5.7125,-77.2708,26.06,87,13,0.68,CO,1681441141
204,sabang,5.8933,95.3214,28.48,74,35,4.37,ID,1681441141
205,cidreira,-30.1811,-50.2056,18.47,86,100,4.69,BR,1681441141
206,buenavista,8.9769,125.4089,29.14,78,66,0.55,PH,1681441141
207,halifax,44.6453,-63.5724,10.25,64,67,4.12,CA,1681440381
208,talnakh,69.4865,88.3972,-21.84,84,95,2.56,RU,1681440900
209,ouricuri,-7.8825,-40.0817,21.1,60,100,0.65,BR,1681441141
210,limulunga,-15.0969,23.1376,16.77,82,2,1.89,ZM,1681441142
211,voh,-20.9667,164.7,24.38,91,100,1.49,NC,1681441142
212,launceston,-41.45,147.1667,17.31,55,100,2.57,AU,1681441142
213,moose factory,51.2585,-80.6094,-1.0,80,100,2.06,CA,1681441142
214,vestmannaeyjar,63.4427,-20.2734,6.24,75,91,2.46,IS,1681441143
215,mjolby,58.326,15.1237,4.6,96,100,2.38,SE,1681441143
216,avila,40.5833,-5.0,4.8,86,83,4.61,ES,1681441143
217,qui nhon,13.7667,109.2333,35.45,45,78,1.66,VN,1681441017
218,port lincoln,-34.7333,135.8667,23.57,42,100,7.67,AU,1681441144
219,cullman,34.1748,-86.8436,17.3,100,75,2.57,US,1681441022
220,cap malheureux,-19.9842,57.6142,24.7,89,1,0.99,MU,1681441144
221,kysyl-syr,63.8986,122.7617,-2.04,87,31,1.8,RU,1681441144
222,clyde river,70.4692,-68.5914,-16.87,71,0,5.66,CA,1681441144
223,gonen,40.1049,27.654,8.83,63,58,3.62,TR,1681441145
224,mayo,38.8876,-76.5119,22.23,69,0,2.57,US,1681441145
225,marsabit,2.3284,37.9899,17.91,88,100,4.39,KE,1681441145
226,gold coast,-28.0,153.4333,28.83,65,40,5.66,AU,1681441146
227,hamilton,39.1834,-84.5333,19.49,52,0,0.0,US,1681440785
228,pilar,-9.5972,-35.9567,21.96,84,99,0.84,BR,1681441146
229,ceres,37.5949,-120.9577,17.97,22,0,5.14,US,1681441071
230,geraldton,-28.7667,114.6,21.23,35,40,11.32,AU,1681441146
231,khammam,17.25,80.15,32.62,31,100,3.14,IN,1681441146
232,salalah,17.0151,54.0924,26.48,75,1,0.7,OM,1681441147
233,gigmoto,13.7796,124.39,29.86,69,14,4.11,PH,1681441147
234,vilhena,-12.7406,-60.1458,20.52,96,98,1.07,BR,1681441147
235,araguaina,-7.1911,-48.2072,23.77,84,100,1.39,BR,1681441147
236,soyo,-6.1349,12.3689,26.43,78,72,2.2,AO,1681441147
237,huilong,31.8111,121.655,20.52,76,100,4.44,CN,1681441148
238,sao felix do xingu,-6.6447,-51.995,21.91,98,55,0.26,BR,1681441148
239,kanniyakumari,8.0833,77.5667,29.08,67,78,1.85,IN,1681441148
240,poya,-21.35,165.15,23.45,94,100,2.3,NC,1681441148
241,malanje,-9.5402,16.341,16.88,98,15,1.24,AO,1681441149
242,mangan,27.5167,88.5333,26.58,28,24,2.13,IN,1681441149
243,ndele,8.4109,20.6473,23.05,77,100,2.55,CF,1681441149
244,wagar,16.1525,36.2032,22.55,55,68,4.13,SD,1681441150
245,hambantota,6.1241,81.1185,27.19,100,20,2.06,LK,1681441150
246,kavieng,-2.5744,150.7967,28.57,78,45,7.22,PG,1681441151
247,fairbanks,64.8378,-147.7164,-2.44,54,75,4.12,US,1681441132
248,pueblo nuevo,23.3833,-105.3833,9.27,53,32,1.08,MX,1681441151
249,port hawkesbury,45.6169,-61.3485,10.51,63,100,4.63,CA,1681440958
250,bako,5.7833,36.5667,16.33,84,62,1.64,ET,1681441152
251,shuiji,27.4214,118.345,26.77,72,73,1.53,CN,1681441152
252,alexandria,31.2156,29.9553,12.3,81,5,2.66,EG,1681440958
253,terrak,65.087,12.3715,5.93,70,91,7.32,NO,1681441153
254,saint-pierre,-21.3393,55.4781,24.82,73,0,2.57,RE,1681440883
255,ko samui,9.5357,99.9357,31.95,70,20,2.06,TH,1681441153
256,katsuura,35.1333,140.3,18.38,71,100,8.41,JP,1681441017
257,makakilo city,21.3469,-158.0858,27.18,60,40,8.23,US,1681441154
258,korla,41.7597,86.1469,14.36,28,66,3.46,CN,1681441154
259,dingle,10.9995,122.6711,32.03,55,39,2.44,PH,1681441154
260,inhambane,-23.865,35.3833,22.23,87,0,3.94,MZ,1681441155
261,lebu,-37.6167,-73.65,12.93,95,90,0.2,CL,1681440990
262,yumen,40.2833,97.2,12.94,23,41,9.2,CN,1681440927
263,laredo,27.5064,-99.5075,26.16,44,0,6.69,US,1681441155
264,surgana,20.5667,73.6167,29.79,27,91,1.52,IN,1681441156
265,vostok,46.4856,135.8833,1.54,65,100,4.54,RU,1681441156
266,lagoa,39.05,-27.9833,15.96,84,66,4.59,PT,1681441156
267,yeppoon,-23.1333,150.7333,28.88,37,0,3.34,AU,1681441156
268,kaitangata,-46.2817,169.8464,16.07,73,48,6.19,NZ,1681441052
269,shihezi,44.3,86.0333,14.52,30,96,4.42,CN,1681441157
270,cherdyn,60.403,56.4787,-9.62,71,66,3.51,RU,1681441157
271,berdigestyakh,62.0989,126.6992,-1.35,90,89,2.39,RU,1681441157
272,hailey,43.5196,-114.3153,0.92,68,0,1.79,US,1681441158
273,gidrotorf,56.4744,43.5414,-1.01,57,36,7.73,RU,1681441158
274,martapura,-3.4167,114.85,30.05,74,40,1.54,ID,1681441158
275,matagami,49.7502,-77.6328,0.06,80,100,5.14,CA,1681440918
276,ahipara,-35.1667,173.1667,21.75,70,100,5.12,NZ,1681441158
277,jalingo,8.8833,11.3667,26.12,22,61,1.3,NG,1681441159
278,palencia,42.4167,-4.5,7.73,80,100,6.95,ES,1681441144
279,esperance,-33.8667,121.9,14.65,64,69,14.05,AU,1681441019
280,abilene,32.4487,-99.7331,24.12,35,0,6.69,US,1681441054
281,pechenga,69.5259,31.1703,-3.78,88,16,7.27,RU,1681441159
282,stornoway,58.2093,-6.3865,2.74,93,68,0.51,GB,1681441159
283,jinan,36.6683,116.9972,20.47,57,93,7.01,CN,1681441160
284,longyearbyen,78.2186,15.6401,-1.09,80,75,2.06,SJ,1681441101
285,hobyo,5.3505,48.5268,28.2,75,100,4.28,SO,1681441160
286,port elizabeth,-33.918,25.5701,18.16,74,0,10.29,ZA,1681440967
287,perelyub,51.8667,50.3667,9.32,84,100,12.15,RU,1681441161
288,hokitika,-42.7167,170.9667,20.53,51,66,2.48,NZ,1681441161
289,bathurst,-33.4166,149.5806,21.65,55,20,0.45,AU,1681441161
290,saldanha,-33.0117,17.9442,12.03,84,0,5.86,ZA,1681441131
291,enumclaw,47.2043,-121.9915,8.04,76,100,0.45,US,1681441017
292,newport,51.5877,-2.9984,7.47,89,100,3.13,GB,1681440862
293,merauke,-8.4667,140.3333,29.09,72,97,3.12,ID,1681441162
294,lumeje,-11.55,20.7833,17.1,96,22,1.91,AO,1681441162
295,asau,46.4333,26.4,5.52,82,7,1.06,RO,1681441162
296,praia da vitoria,38.7333,-27.0667,17.14,88,75,6.33,PT,1681441163
297,parbatipur,25.6649,88.9247,31.91,22,74,3.99,BD,1681441163
298,iringa,-7.7667,35.7,14.74,95,100,1.69,TZ,1681441163
299,flinders,-34.5833,150.8552,21.77,78,45,2.68,AU,1681440981
300,sibolga,1.7427,98.7792,27.24,85,95,0.95,ID,1681440945
301,oranjestad,12.524,-70.027,25.97,83,20,8.75,AW,1681441140
302,georgetown,5.4112,100.3354,31.96,74,20,3.6,MY,1681440643
303,aljezur,37.3191,-8.8033,9.44,88,61,3.4,PT,1681441164
304,aksha,50.2814,113.2867,2.84,37,100,4.81,RU,1681441165
305,camacha,33.0833,-16.3333,15.68,63,75,5.66,PT,1681441165
306,derzhavinsk,51.1,66.3167,10.36,68,100,8.52,KZ,1681441165
307,nemuro,43.3236,145.575,6.92,75,6,4.74,JP,1681441165
308,broken hill,-31.95,141.4333,22.17,38,28,4.12,AU,1681441165
309,kandrian,-6.2167,149.55,28.91,74,100,2.08,PG,1681441166
310,kutum,14.2,24.6667,18.45,17,10,3.56,SD,1681441166
311,kadoma,34.7333,135.5833,22.0,40,0,3.09,JP,1681441166
312,sorong,-0.8833,131.25,29.54,71,17,4.06,ID,1681441166
313,karratha,-20.7377,116.8463,30.77,35,87,8.85,AU,1681441167
314,seymchan,62.8833,152.4333,-9.1,73,64,1.22,RU,1681441167
315,ha tinh,18.3333,105.9,31.3,65,98,2.07,VN,1681441167
316,byron bay,-28.65,153.6167,23.73,61,41,7.46,AU,1681441167
317,rio brilhante,-21.8019,-54.5464,20.99,97,100,2.33,BR,1681440908
318,basco,20.4487,121.9702,26.18,87,98,5.32,PH,1681441167
319,tual,-5.6667,132.75,28.63,71,19,2.25,ID,1681441167
320,victoria,22.2855,114.1577,27.46,82,100,4.02,HK,1681440939
321,luanda,-8.8368,13.2343,26.0,89,40,1.03,AO,1681440626
322,vanimo,-2.6741,141.3028,30.07,69,34,4.48,PG,1681441168
323,abnub,27.2696,31.1511,15.12,25,84,1.69,EG,1681441168
324,wentzville,38.8114,-90.8529,21.14,43,96,2.92,US,1681441168
325,anadyr,64.75,177.4833,-18.72,84,0,5.0,RU,1681441169
326,kavaratti,10.5669,72.642,28.38,72,89,1.48,IN,1681440942
327,severomuysk,56.1481,113.4267,-9.95,64,10,1.32,RU,1681441143
328,vangaindrano,-23.35,47.6,21.33,92,3,1.18,MG,1681441169
329,san vicente,-26.6167,-54.1333,17.07,100,100,1.39,AR,1681441169
330,sapernoye,60.7167,29.9505,-0.19,86,100,4.87,RU,1681441169
331,klyuchi,52.2667,79.1667,11.66,41,100,5.31,RU,1681441170
332,eureka,40.8021,-124.1637,9.4,74,26,3.58,US,1681441170
333,ciudad bolivar,8.1222,-63.5497,27.4,55,100,5.29,VE,1681440980
334,celestun,20.8667,-90.4,24.52,69,96,6.46,MX,1681441171
335,luwuk,-0.9516,122.7875,26.04,85,100,1.2,ID,1681441171
336,ayan,56.45,138.1667,0.36,52,100,4.76,RU,1681441171
337,latung,5.5,120.8833,28.0,70,30,0.39,PH,1681441172
338,juegang,32.3174,121.1855,22.21,84,100,2.69,CN,1681441172
339,azul,-36.777,-59.8585,7.37,63,99,2.83,AR,1681441172
340,chany,55.3121,76.7647,-5.61,84,100,7.12,RU,1681441172
341,kuldiga,56.974,21.9572,9.83,86,100,4.03,LV,1681441173
342,esso,55.9333,158.7,-1.16,92,100,2.61,RU,1681441173
343,beyneu,45.3167,55.2,14.15,74,85,8.04,KZ,1681441173
344,cartagena del chaira,1.3349,-74.8429,25.01,85,100,0.56,CO,1681441173
345,pudozh,61.8099,36.5345,-8.68,91,6,3.29,RU,1681441174
346,vardo,70.3705,31.1107,-2.01,69,56,4.12,NO,1681441142
347,arvika,59.6553,12.5852,3.34,94,100,3.2,SE,1681441174
348,pedasi,7.5333,-80.0333,25.59,81,36,8.27,PA,1681441174
349,copiapo,-27.3667,-70.3333,13.83,66,0,0.21,CL,1681441167
350,silvan,38.1419,41.0081,5.16,93,83,1.27,TR,1681441174
351,millerovo,48.9226,40.3967,8.25,94,100,5.55,RU,1681441175
352,yatou,37.15,122.3833,14.17,87,100,5.11,CN,1681441175
353,anjiang,27.3194,110.1031,21.82,95,100,1.0,CN,1681441175
354,quang ngai,15.1167,108.8,32.05,62,38,3.17,VN,1681441175
355,la romana,18.4273,-68.9728,24.2,88,20,2.06,DO,1681440831
356,thinadhoo,0.5333,72.9333,28.4,72,72,2.71,MV,1681441175
357,tautira,-17.7333,-149.15,26.72,66,38,4.53,PF,1681441175
358,bajram curri,42.3554,20.0784,11.24,84,87,2.77,AL,1681441175
359,dzhebariki-khaya,62.2167,135.8,-1.45,87,100,1.33,RU,1681441176
360,duayaw nkwanta,7.1724,-2.1028,22.26,94,95,0.64,GH,1681441176
361,mandiana,10.6333,-8.6833,28.0,21,14,2.0,GN,1681441176
362,cabo san lucas,22.8909,-109.9124,26.61,67,96,2.68,MX,1681440708
363,hami,42.8,93.45,13.92,30,26,1.31,CN,1681441176
364,teknaf,20.8624,92.3058,31.23,41,27,1.5,BD,1681441176
365,kalmunai,7.4167,81.8167,28.64,75,10,0.52,LK,1681440982
366,namibe,-15.1961,12.1522,22.73,70,3,1.29,AO,1681441176
367,goundam,16.4145,-3.6708,28.25,12,100,4.88,ML,1681441177
368,kirillov,59.863,38.3813,-5.63,79,15,4.12,RU,1681441177
369,lasa,46.6166,10.7002,3.35,94,100,3.56,IT,1681441177
370,port-cartier,50.0334,-66.8654,4.82,96,100,1.79,CA,1681441177
371,padang,-0.9492,100.3543,30.03,70,98,1.24,ID,1681441177
372,mahajanga,-15.7167,46.3167,24.01,100,20,2.57,MG,1681441177
373,porto torres,40.835,8.3972,12.1,76,57,11.44,IT,1681441177
374,saskylakh,71.9167,114.0833,-11.02,87,54,7.34,RU,1681441178
375,mangit,40.5971,70.9607,21.47,35,48,2.76,UZ,1681441178
376,waitati,-45.75,170.5667,13.78,75,100,4.43,NZ,1681441178
377,yulara,-25.2406,130.9889,30.89,40,100,10.65,AU,1681441178
378,tessalit,20.1986,1.0114,24.81,12,97,4.14,ML,1681441178
379,catumbela,-12.4314,13.5472,25.18,90,100,1.5,AO,1681441178
380,mahon,39.8885,4.2658,12.31,76,20,2.57,ES,1681441178
381,portobelo,9.55,-79.65,25.06,87,42,6.58,PA,1681441179
382,nagram,26.6167,81.1333,29.03,11,100,2.12,IN,1681441179
383,la rioja,42.25,-2.5,2.88,86,100,2.5,ES,1681441179
384,bar harbor,44.3876,-68.2039,9.74,81,0,2.68,US,1681441179
385,iqaluit,63.7506,-68.5145,-8.15,93,100,2.06,CA,1681440963
386,lorengau,-2.0226,147.2712,29.51,73,21,6.93,PG,1681441117
387,ucluelet,48.9329,-125.5528,7.27,79,43,2.46,CA,1681440908
388,keelung,25.1283,121.7419,29.47,75,40,2.34,TW,1681441179
389,labuhan,-6.8844,112.2051,28.4,71,100,2.4,ID,1681441018
390,aranos,-24.1333,19.1167,13.82,18,5,4.98,NA,1681441118
391,taltal,-25.4,-70.4833,19.61,69,0,1.77,CL,1681441180
392,biloela,-24.4167,150.5,28.01,21,0,4.06,AU,1681441180
393,baykit,61.67,96.37,-9.93,90,100,1.87,RU,1681441180
394,pisco,-13.7,-76.2167,23.03,78,0,5.66,PE,1681441180
395,komsomolskiy,40.4272,71.7189,17.4,59,8,2.06,UZ,1681441180
396,itaituba,-4.2761,-55.9836,23.21,95,94,0.92,BR,1681441180
397,cururupu,-1.8283,-44.8683,23.93,95,82,1.03,BR,1681441180
398,shama,33.6102,104.2852,12.86,52,60,1.26,CN,1681441180
399,alugan,12.2188,125.4808,28.88,72,41,4.26,PH,1681441181
400,bay city,43.5945,-83.8889,17.0,55,0,0.0,US,1681440577
401,tevaitoa,-16.7833,-151.5,27.5,69,3,2.87,PF,1681441181
402,tooele,40.5308,-112.2983,3.04,41,0,0.0,US,1681441181
403,vorukh,39.8494,70.5838,17.14,28,22,3.43,TJ,1681441181
404,barcelos,41.5388,-8.6151,13.08,85,100,2.46,PT,1681441181
405,pangai,-19.8,-174.35,30.06,66,20,7.2,TO,1681441181
406,constantine,36.365,6.6147,7.67,70,0,1.03,DZ,1681440986
407,ixtapa,20.7,-105.2,19.63,64,4,1.3,MX,1681441182
408,bandarbeyla,9.4942,50.8122,28.01,77,40,3.34,SO,1681441182
409,buala,-8.145,159.5921,28.21,80,95,2.89,SB,1681441182
410,pundaguitan,6.3711,126.1689,28.22,72,28,1.3,PH,1681441182
411,la union,-5.4,-80.75,28.53,65,100,3.92,PE,1681441182
412,severo-kurilsk,50.6789,156.125,1.31,95,67,5.01,RU,1681440969
413,lamu,-2.2717,40.902,28.12,84,98,2.55,KE,1681441182
414,honiara,-9.4333,159.95,29.3,76,84,2.93,SB,1681441182
415,hovd,48.0056,91.6419,4.39,16,0,2.3,MN,1681441183
416,pacifica,37.6138,-122.4869,13.47,74,20,12.35,US,1681441032
417,srednekolymsk,67.45,153.6833,-5.35,75,14,5.76,RU,1681441097
418,pemberton,50.3164,-122.8027,3.7,90,95,1.44,CA,1681441183
419,bonthe,7.5264,-12.505,25.75,85,62,2.13,SL,1681441183
420,dimbokro,6.6451,-4.7048,24.76,94,100,1.68,CI,1681441183
421,kenora,49.8167,-94.4337,5.54,75,75,6.17,CA,1681441183
422,sibu,2.3,111.8167,29.17,79,40,0.0,MY,1681441183
423,san patricio,28.017,-97.5169,22.92,71,41,4.73,US,1681441183
424,chicama,-7.8447,-79.1469,25.3,74,100,1.76,PE,1681441184
425,pochutla,15.7432,-96.4661,27.68,63,0,1.94,MX,1681441052
426,cootamundra,-34.65,148.0333,21.64,43,0,3.36,AU,1681441184
427,santa cruz,-17.8,-63.1667,23.7,94,75,1.03,BO,1681441184
428,batticaloa,7.7102,81.6924,28.14,77,5,0.77,LK,1681441184
429,ubala,4.7478,-72.5369,27.12,63,100,1.32,CO,1681441184
430,porto belo,-27.1578,-48.5531,22.31,89,64,4.15,BR,1681441184
431,saint-francois,46.4154,3.9054,5.69,81,100,1.03,FR,1681441149
432,batiano,7.5534,126.4907,27.56,83,56,1.97,PH,1681441185
433,tabou,4.423,-7.3528,26.61,87,86,1.75,CI,1681441185
434,helong,42.5397,128.9972,14.49,14,83,2.01,CN,1681441185
435,kharagpur,22.3333,87.3333,37.73,12,34,3.38,IN,1681440904
436,sananduva,-27.9497,-51.8067,15.99,96,100,2.31,BR,1681441185
437,abancay,-13.6339,-72.8814,13.38,92,61,0.75,PE,1681441185
438,sioux lookout,50.1001,-91.917,3.04,93,100,1.54,CA,1681441185
439,talakan,50.3167,130.3667,4.49,45,78,3.46,RU,1681441185
440,zyryanka,65.75,150.85,-3.87,73,7,6.84,RU,1681441185
441,faanui,-16.4833,-151.75,27.48,70,3,2.71,PF,1681440911
442,casian,11.035,119.7136,28.18,73,87,2.26,PH,1681441186
443,mahroni,24.5862,78.7288,32.57,19,100,5.82,IN,1681441186
444,minna,9.6139,6.5569,29.84,58,0,1.03,NG,1681441186
445,nouakchott,18.0858,-15.9785,24.96,69,65,5.19,MR,1681441186
446,mareeba,-17.0,145.4333,33.02,52,84,2.28,AU,1681441186
447,elizabethtown,37.694,-85.8591,20.01,52,0,0.0,US,1681441186
448,pakhtakoron,40.1571,68.7466,24.11,28,58,8.58,TJ,1681441186
449,tondon,10.3667,-13.35,23.61,71,81,0.66,GN,1681441187
450,strezhevoy,60.7333,77.5889,-16.0,84,47,4.47,RU,1681441187
451,nanakuli,21.3906,-158.1547,27.97,53,0,7.2,US,1681441187
452,lano,10.1725,11.4715,26.0,18,29,2.16,NG,1681441187
453,the valley,18.217,-63.0578,26.01,74,33,7.06,AI,1681441175
454,paamiut,61.994,-49.6678,1.08,71,100,4.43,GL,1681441032
455,porto novo,6.4965,2.6036,28.9,87,21,2.88,BJ,1681441187
456,bathsheba,13.2167,-59.5167,26.34,73,20,5.66,BB,1681441187
457,mount gambier,-37.8333,140.7667,21.86,50,24,5.27,AU,1681441096
458,port hedland,-20.3167,118.5667,31.03,51,100,7.2,AU,1681441188
459,san carlos de bariloche,-41.1456,-71.3082,5.86,81,75,3.09,AR,1681441188
460,vila velha,-20.3297,-40.2925,25.97,93,40,3.09,BR,1681440950
461,kaa-khem,51.6833,94.7333,1.38,45,100,0.73,RU,1681441188
462,puerto leguizamo,-0.1934,-74.7819,25.58,76,100,0.3,CO,1681441188
463,lokosovo,61.1333,74.8167,-17.08,84,18,4.47,RU,1681441115
464,matara,5.9485,80.5353,28.56,74,76,2.05,LK,1681441188
465,chumikan,54.7183,135.315,-1.58,83,100,2.15,RU,1681441188
466,pouebo,-20.4,164.5667,24.23,88,100,1.99,NC,1681441189
467,ramhormoz,31.28,49.6035,16.91,57,0,1.95,IR,1681441189
468,bibiani,6.4635,-2.3194,22.34,97,99,0.49,GH,1681441189
469,grootfontein,-19.5667,18.1167,18.76,59,83,2.57,NA,1681440916
470,isangel,-19.55,169.2667,28.34,75,100,4.31,VU,1681441189
471,shubarshi,48.5872,57.1869,15.24,47,100,4.43,KZ,1681441189
472,flin flon,54.7682,-101.865,-0.83,97,100,1.39,CA,1681441189
473,yinchuan,38.4681,106.2731,14.04,16,47,2.59,CN,1681441018
474,popondetta,-8.7537,148.2534,31.91,59,94,3.2,PG,1681441189
475,kaka,37.3482,59.6143,20.4,41,70,1.54,TM,1681441190
476,porgera,-5.4667,143.2,14.23,72,85,1.76,PG,1681441190
477,nuuk,64.1835,-51.7216,2.71,60,100,2.24,GL,1681441190
478,wuwei,37.9281,102.6414,10.42,34,81,2.76,CN,1681441190
479,kangaba,11.9333,-8.4167,28.32,21,26,1.97,ML,1681441190
480,te anau,-45.4167,167.7167,16.41,61,8,0.92,NZ,1681441190
481,yelnya,54.5786,33.1837,5.45,67,100,6.11,RU,1681441190
482,parkersburg,39.2667,-81.5615,18.03,44,0,1.48,US,1681441190
483,raudeberg,61.9875,5.1352,8.37,76,100,4.23,NO,1681441191
484,talwandi bhai,30.85,74.9333,31.03,15,2,2.01,IN,1681441191
485,majene,-3.5403,118.9707,30.25,66,100,1.57,ID,1681441191
486,talcahuano,-36.7167,-73.1167,14.82,94,100,1.54,CL,1681441016
487,la ronge,55.1001,-105.2842,5.14,45,75,2.57,CA,1681441191
488,lashio,22.9333,97.75,32.64,17,5,0.88,MM,1681441191
489,tommot,58.9564,126.2925,-0.69,86,98,1.63,RU,1681441191
490,lac du bonnet,50.2536,-96.0612,4.53,87,100,5.65,CA,1681440957
491,mayskiy,47.6931,40.1025,9.67,93,100,6.63,RU,1681441192
492,urengoy,65.9667,78.3667,-17.78,90,83,7.46,RU,1681441192
493,shingu,33.7333,135.9833,18.64,61,100,2.67,JP,1681441192
494,beira,-19.8436,34.8389,23.05,100,20,2.24,MZ,1681441192
495,sao joao da barra,-21.6403,-41.0511,22.76,95,37,1.26,BR,1681441035
496,presidencia roque saenz pena,-26.7852,-60.4388,16.3,95,100,3.96,AR,1681441192
497,ferry pass,30.5102,-87.2125,19.27,89,50,0.45,US,1681441192
498,port macquarie,-31.4333,152.9167,24.38,64,14,6.17,AU,1681441192
499,kawalu,-7.3817,108.2082,26.95,78,98,1.71,ID,1681441193
500,chibombo,-14.6569,28.0706,15.44,96,1,1.83,ZM,1681441193
501,ferrol,43.4832,-8.2369,12.62,93,100,8.69,ES,1681441193
502,picton,-34.1833,150.6,20.79,71,73,2.73,AU,1681441193
503,eyl,7.9803,49.8164,27.71,74,98,4.3,SO,1681441193
504,rajapur,25.3833,81.15,34.77,16,61,2.37,IN,1681441193
505,makokou,0.5738,12.8642,20.95,98,100,0.37,GA,1681441193
506,lesozavodsk,45.4794,133.4244,6.95,38,100,5.53,RU,1681441193
507,valparaiso,-33.0393,-71.6273,17.22,63,0,1.03,CL,1681441194
508,madang,-5.2246,145.7966,31.29,64,99,3.16,PG,1681441194
509,tongchuan,35.0806,109.0897,17.23,32,89,3.37,CN,1681441194
510,ajdabiya,30.7554,20.2263,18.07,19,99,5.36,LY,1681441194
511,brownwood,31.7093,-98.9912,23.62,47,20,6.17,US,1681441103
512,tyrma,50.0833,132.1667,3.41,47,90,2.08,RU,1681441194
513,christiana,-27.914,25.1611,12.84,29,1,3.76,ZA,1681441195
514,namatanai,-3.6667,152.4333,28.44,78,100,7.06,PG,1681440979
515,weatherford,32.7593,-97.7972,20.72,63,32,6.5,US,1681441195
516,saint-joseph,-21.3667,55.6167,24.21,83,99,0.28,RE,1681441195
517,ossora,59.2353,163.0719,-0.8,88,100,5.23,RU,1681441195
518,mogadishu,2.0371,45.3438,27.7,73,100,4.91,SO,1681441195
519,drayton valley,53.2168,-114.9854,1.05,82,64,2.3,CA,1681441195
520,sechura,-5.5569,-80.8222,28.47,67,100,4.89,PE,1681441177
521,bilgi,16.35,75.6167,31.83,29,100,4.6,IN,1681441195
522,ibra,22.6906,58.5334,26.31,47,4,1.67,OM,1681441196
523,mecca,21.4267,39.8261,23.5,47,1,1.05,SA,1681441180
524,toamasina,-18.1667,49.3833,24.0,94,40,2.57,MG,1681441196
525,charters towers,-20.1,146.2667,32.49,16,22,3.36,AU,1681441196
526,balkhash,46.844,74.9804,11.34,46,0,7.0,KZ,1681441196
527,lithakia,37.7167,20.8333,14.65,81,43,9.9,GR,1681441196
528,ornskoldsvik,63.2909,18.7153,-1.47,74,98,3.09,SE,1681441196
529,kiunga,-6.1219,141.2906,34.04,47,18,1.3,PG,1681441196
530,sirjan,29.452,55.6814,14.87,62,68,3.8,IR,1681441196
531,warrnambool,-38.3833,142.4833,22.96,55,14,4.35,AU,1681441197
532,ugoofaaru,5.6667,73.0,28.28,75,21,2.54,MV,1681441197
533,arlit,18.7369,7.3853,25.47,13,85,3.9,NE,1681441197
534,zeya,53.75,127.2667,3.98,51,29,3.23,RU,1681441067
535,jaisinghnagar,23.7,81.3833,33.84,18,38,3.76,IN,1681441197
536,viedma,-40.8135,-62.9967,8.35,64,0,2.39,AR,1681440534
537,bowen,-20.0167,148.2333,27.6,54,4,5.86,AU,1681441197
538,puerto del rosario,28.5004,-13.8627,17.86,72,100,8.75,ES,1681441198
539,placido de castro,-10.3353,-67.1856,23.61,95,81,1.01,BR,1681441198
540,gazimurskiy zavod,51.5461,118.3266,5.95,49,94,0.62,RU,1681441198
541,siniscola,40.5719,9.6922,11.75,66,48,10.78,IT,1681441198
542,barra do garcas,-15.89,-52.2567,22.64,92,92,0.47,BR,1681441198
543,haines junction,60.7522,-137.5108,4.97,33,100,2.57,CA,1681441198
544,kovur,14.4833,79.9833,32.53,32,63,5.09,IN,1681441199
545,soe,-9.8607,124.284,26.86,64,62,1.14,ID,1681441199
546,marawi,7.9986,124.2928,29.36,52,65,0.61,PH,1681441199
547,manaus,-3.1019,-60.025,27.27,83,0,2.06,BR,1681440909
548,richards bay,-28.783,32.0377,21.09,85,86,2.63,ZA,1681440951
549,heihe,50.2441,127.4902,6.32,29,41,4.5,CN,1681441199
550,turukhansk,65.8167,87.9833,-18.23,90,100,3.87,RU,1681441144
551,aleksandrovka,46.8383,32.7612,9.81,91,93,3.86,UA,1681441199
552,toora-khem,52.4675,96.11,0.19,56,100,0.99,RU,1681441199
553,mabaruma,8.2,-59.7833,23.17,96,87,1.25,GY,1681441200
